[
    {
        "id": 1,
        "title": "Campanas Iglesia Veracruz",
        "category": "Sonidos objetos",
        "address": "Iglesia Veracruz",
        "lat": 4.602569123208184,
        "lng": -74.07296102787862,
        "type": "audio",
        "file": "media/1. Categoria Sonidos objetos/Campanas_Veracruz.m4a"
    },
    {
        "id": 2,
        "title": "Skaters Parque Santander",
        "category": "Sonidos objetos",
        "address": "Parque Santander",
        "lat": 4.602088371552142,
        "lng": -74.07256650379416,
        "type": "audio",
        "file": "media/1. Categoria Sonidos objetos/Skaters_ParqueSantander.mp3"
    },
    {
        "id": 3,
        "title": "Cositas Malas de Mi",
        "category": "Cantantes o instrumentos",
        "address": "Calle 19 con Cra. 7ma",
        "lat": 4.605333112624464,
        "lng": -74.07162578973018,
        "type": "audio",
        "file": "media/2. Categoria Cantantes o instumentos/Cantante_Cositasmalas.mp3"
    },
    {
        "id": 4,
        "title": "Pero lo Dudo",
        "category": "Cantantes o instrumentos",
        "address": "Plazoleta del Rosario, esquina oriental",
        "lat": 4.600702083753035,
        "lng": -74.07300234707759,
        "type": "audio",
        "file": "media/2. Categoria Cantantes o instumentos/Cantante Pero lo dudo.mp3"
    },
    {
        "id": 5,
        "title": "Estoy pensando",
        "category": "Cantantes o instrumentos",
        "address": "Cra. 7ma con calle 14",
        "lat": 4.600964996543468,
        "lng": -74.07383268705205,
        "type": "audio",
        "file": "media/2. Categoria Cantantes o instumentos/Cantante_Estoypensando_01.mp3"
    },
    {
        "id": 6,
        "title": "Gaitero Místico",
        "category": "Cantantes o instrumentos",
        "address": "Plazoleta del Rosario, frente a Claustro",
        "lat": 4.600976957759329,
        "lng": -74.07303001449466,
        "type": "audio",
        "file": "media/2. Categoria Cantantes o instumentos/Gaitero_Mistico.mp3"
    },
    {
        "id": 7,
        "title": "Baterista Matador",
        "category": "Cantantes o instrumentos",
        "address": "Cra. 7ma con Avenida Jiménez",
        "lat": 4.601478221303708,
        "lng": -74.073412456351,
        "type": "audio",
        "file": "media/2. Categoria Cantantes o instumentos/Baterista_Matador.mp3"
    },
    {
        "id": 8,
        "title": "Baterista Tecno Plástico",
        "category": "Cantantes o instrumentos",
        "address": "Eje Ambiental frente a C & P",
        "lat": 4.600579582097168,
        "lng": -74.07111425782121,
        "type": "audio",
        "file": "media/2. Categoria Cantantes o instumentos/Baterista_Tecno_Plastico.mp3"
    },
    {
        "id": 9,
        "title": "Comparsa Cumple Bogotá",
        "category": "Eventos",
        "address": "Cra. 7ma con Calle 17",
        "lat": 4.603530532730275,
        "lng": -74.0722757573915,
        "type": "audio",
        "file": "media/3. Categoria Eventos/Evento_Cumple35Libro.mp3"
    },
    {
        "id": 10,
        "title": "Concierto 35 años - Cielito Lindo",
        "category": "Eventos",
        "address": "Callejón de los libros (Cra 8a con Calle 15)",
        "lat": 4.602842249353074,
        "lng": -74.0743134805837,
        "type": "audio",
        "file": "media/3. Categoria Eventos/Cantante RAncherta Cielito Lindo.mp3"
    },
    {
        "id": 11,
        "title": "Hombres de Aluminio - Bienal",
        "category": "Eventos",
        "address": "Frente a Iglesia San Francisco",
        "lat": 4.601951621505435,
        "lng": -74.07300733515225,
        "type": "audio",
        "file": "media/3. Categoria Eventos/Performance_Hombresaluminio_BOG25.mp3"
    },
    {
        "id": 12,
        "title": "Bailadores de Carranga",
        "category": "Bailadores",
        "address": "Cra. 7ma frente a Iglesia Veracruz",
        "lat": 4.602652098270596,
        "lng": -74.07288224160884,
        "type": "audio",
        "file": "media/4. Categoria Bailadores/Personaje_Carrangabaile.wav"
    },
    {
        "id": 13,
        "title": "Bailadores de Ranchera",
        "category": "Bailadores",
        "address": "Callejón de los libros",
        "lat": 4.603056392344371,
        "lng": -74.0741797612364,
        "type": "audio",
        "file": "media/4. Categoria Bailadores/Bailadores de Ranchera.mp3"
    },
    {
        "id": 14,
        "title": "Vaca Venta Avena",
        "category": "Vendedores",
        "address": "Av. Jimenez con 4ta",
        "lat": 4.600764206092222,
        "lng": -74.07012829741068,
        "type": "audio",
        "file": "media/5. Categoria Vendedores/Pregonero_Vaca.mp3"
    },
    {
        "id": 15,
        "title": "Chicha Venezolana",
        "category": "Vendedores",
        "address": "Plaza San Victorino (mitad)",
        "lat": 4.602623990971267,
        "lng": -74.07947590653298,
        "type": "audio",
        "file": "media/5. Categoria Vendedores/Pregonero_Chichavenezolana.mp3"
    },
    {
        "id": 16,
        "title": "Helados La Campiña",
        "category": "Vendedores",
        "address": "Plaza San Victorino (borde oriental)",
        "lat": 4.60270447276406,
        "lng": -74.07909984194906,
        "type": "audio",
        "file": "media/5. Categoria Vendedores/Pregonero_Heladolacampiña.mp3"
    },
    {
        "id": 17,
        "title": "Michelada de Mango",
        "category": "Vendedores",
        "address": "Plaza San Victorino (borde occidental)",
        "lat": 4.602580092314085,
        "lng": -74.07999533403584,
        "type": "audio",
        "file": "media/5. Categoria Vendedores/Pregonero_Micheladademango.mp3"
    },
    {
        "id": 18,
        "title": "Pájaros Parque Periodistas",
        "category": "Sonidos Naturales",
        "address": "Parque Periodistas (árboles)",
        "lat": 4.601292697692628,
        "lng": -74.06952397774778,
        "type": "audio",
        "file": "media/6. Categoria Sonidos Naturales_/Pájaros.mp3"
    },
    {
        "id": 19,
        "title": "Agua - Río Vicacha",
        "category": "Sonidos Naturales",
        "address": "Eje Ambiental (mitad)",
        "lat": 4.601530230264913,
        "lng": -74.06816172919643,
        "type": "audio",
        "file": "media/6. Categoria Sonidos Naturales_/Agua_.m4a"
    },
    {
        "id": 20,
        "title": "Árboles - Parque Santander",
        "category": "Sonidos Naturales",
        "address": "Parque Santander (árboles)",
        "lat": 4.602133048905742,
        "lng": -74.07241885271836,
        "type": "audio",
        "file": "media/6. Categoria Sonidos Naturales_/sonido arboles con viento Parque Santander.mp3"
    },
    {
        "id": 21,
        "title": "Agua - Fuente Parque Santander",
        "category": "Sonidos Naturales",
        "address": "Fuente Parque Santander",
        "lat": 4.601886298407109,
        "lng": -74.07238809275547,
        "type": "audio",
        "file": "media/6. Categoria Sonidos Naturales_/Fuente_Parquesantander_01.mp3"
    },
    {
        "id": 22,
        "title": "Violín Toda la Vida ",
        "category": "Cantantes o instrumentos",
        "address": "Cra. 7 con 17",
        "lat": 4.603615482439807,
        "lng": -74.0724604386648,
        "type": "audio",
        "file": "media/2. Categoria Cantantes o instumentos/Musico_Todalavida.mp3"
    },
    {
        "id": 23,
        "title": "Palacio de San Francisco ",
        "category": "Lugares",
        "address": "Av. Jimenez con 7ma",
        "lat": 4.602141978014714,
        "lng": -74.07361525333596,
        "type": "audio",
        "file": "media/7. Lugares/BOG25_Palacio_Interior.mp3"
    },
    {
        "id": 24,
        "title": "Por una navaja",
        "category": "Cantantes o instrumentos",
        "address": "cra 7 con 17",
        "lat": 4.603397336390017,
        "lng": -74.07234826723858,
        "type": "audio",
        "file": "media/2. Categoria Cantantes o instumentos/Cantante_por_una_navaja.mp3"
    },
    {
        "id": 25,
        "title": "Concierto ASAB",
        "category": "Eventos",
        "address": "cra 13 con 16 ASAB",
        "lat": 4.605487894378669,
        "lng": -74.07715788092993,
        "type": "audio",
        "file": "media/3. Categoria Eventos/Evento_concierto_ASAB.mp3"
    },
    {
        "id": 26,
        "title": "La Kzona Sonidos",
        "category": "Eventos",
        "address": "Av Jimenez con 8va",
        "lat": 4.601986024404354,
        "lng": -74.07432360824527,
        "type": "audio",
        "file": "media/3. Categoria Eventos/Evento_La_Kzona_Sonidos.mp3"
    },
    {
        "id": 27,
        "title": "La Kzona",
        "category": "Eventos",
        "address": "Av Jimenez con 8va",
        "lat": 4.601988815416391,
        "lng": -74.07418640636402,
        "type": "audio",
        "file": "media/3. Categoria Eventos/Evento_La_Kzona.mp3"
    },
    {
        "id": 28,
        "title": "A comer gallina criolla",
        "category": "Vendedores",
        "address": "cra 13 con 18",
        "lat": 4.60721855544422,
        "lng": -74.07586329925077,
        "type": "audio",
        "file": "media/5. Categoria Vendedores/Pregonero_A_comer_gallina_criolla.mp3"
    },
    {
        "id": 29,
        "title": "Cra 11 con 15",
        "category": "Lugares",
        "address": "Cra 11 con 15",
        "lat": 4.6046090749916715,
        "lng": -74.07591889040283,
        "type": "audio",
        "file": "media/7. Lugares/Lugar_cra_11_con_15.mp3"
    }
]